City_ID,City,Country,Lat,Lng,Max Temp,Humidity,Cloudiness,Wind Speed,Current Description,Date
0,Hermanus,ZA,-34.42,19.23,57,74,0,4,clear sky,2/10/2022 19:36
1,Rikitea,PF,-23.12,-134.97,75.24,69,0,6.87,clear sky,2/10/2022 19:36
2,Longyearbyen,SJ,78.22,15.64,24.8,62,75,11.41,broken clouds,2/10/2022 19:36
3,Susanville,US,40.42,-120.65,60.8,19,1,3.36,clear sky,2/10/2022 19:33
4,Pokaran,IN,26.92,71.92,72.48,20,0,2.91,very heavy rain,2/10/2022 19:36
5,Port Elizabeth,ZA,-33.92,25.57,64.4,77,90,4.7,overcast clouds,2/10/2022 19:36
6,Cape Town,ZA,-33.93,18.42,63,59,0,20.8,clear sky,2/10/2022 19:33
7,Camalu,MX,30.85,-116.07,82.99,10,44,4,scattered clouds,2/10/2022 19:36
8,Tura,IN,25.52,90.22,71.71,96,100,0.13,overcast clouds,2/10/2022 19:36
9,Bowen,AU,-20.02,148.23,66.2,93,0,3.36,clear sky,2/10/2022 19:36
10,Mar Del Plata,AR,-38,-57.56,66.2,55,0,13.87,clear sky,2/10/2022 19:36
11,Evensk,RU,61.95,159.23,22.17,93,50,11.92,scattered clouds,2/10/2022 19:36
12,Salalah,OM,17.02,54.09,77,33,0,3.36,clear sky,2/10/2022 19:32
13,Ushuaia,AR,-54.8,-68.3,55.4,58,90,4.7,light intensity drizzle,2/10/2022 19:33
14,Makarska,HR,43.3,17.02,59,82,0,3.36,clear sky,2/10/2022 19:36
15,Nantucket,US,41.28,-70.1,48.2,45,20,10.29,few clouds,2/10/2022 19:36
16,Wanning,CN,18.8,110.4,71.62,87,20,8.63,few clouds,2/10/2022 19:33
17,Nikolskoye,RU,59.7,30.79,39,84,77,3.85,fog,2/10/2022 19:33
18,Richards Bay,ZA,-28.78,32.04,65.79,86,100,5.75,light rain,2/10/2022 19:33
19,Kenai,US,60.55,-151.26,14,72,1,3.36,clear sky,2/10/2022 19:36
20,Asfi,MA,32.3,-9.24,68.25,76,0,12.93,clear sky,2/10/2022 19:36
21,Alofi,NU,-19.06,-169.92,75.2,94,78,13.87,light rain,2/10/2022 19:36
22,Busselton,AU,-33.65,115.33,60.01,77,100,5.37,overcast clouds,2/10/2022 19:36
23,Bengkulu,ID,-3.8,102.27,75.67,88,100,4.21,overcast clouds,2/10/2022 19:36
24,Puerto Ayacucho,VE,5.66,-67.62,87.78,66,95,3.47,heavy intensity rain,2/10/2022 19:36
25,Champua,IN,22.08,85.67,70.05,75,0,5.53,clear sky,2/10/2022 19:36
26,Kavieng,PG,-2.57,150.8,82.99,76,35,10.56,light rain,2/10/2022 19:36
27,East London,ZA,-33.02,27.91,64.4,72,20,5.82,few clouds,2/10/2022 19:33
28,Davila,PH,18.47,120.58,77,65,75,9.17,broken clouds,2/10/2022 19:36
29,Teahupoo,PF,-17.83,-149.27,84.2,62,20,6.93,few clouds,2/10/2022 19:36
30,Tiksi,RU,71.69,128.87,3.02,93,96,4.68,overcast clouds,2/10/2022 19:36
31,Butaritari,KI,3.07,172.79,81.25,75,100,15.48,overcast clouds,2/10/2022 19:36
32,Camana,PE,-16.62,-72.71,67.77,69,72,7.36,broken clouds,2/10/2022 19:36
33,Qaanaaq,GL,77.48,-69.36,9.9,83,95,6.82,overcast clouds,2/10/2022 19:36
34,Provideniya,RU,64.38,-173.3,21.04,88,84,6.55,broken clouds,2/10/2022 19:36
35,Hithadhoo,MV,-0.6,73.08,83.57,70,100,8.48,light rain,2/10/2022 19:36
36,Yellowknife,CA,62.46,-114.35,21.2,85,90,16.11,light snow,2/10/2022 19:33
37,Port Alfred,ZA,-33.59,26.89,64.15,79,69,14.85,broken clouds,2/10/2022 19:36
38,Pipri,IN,19.8,75.53,71.6,68,40,5.39,haze,2/10/2022 19:36
39,Tuktoyaktuk,CA,69.45,-133.04,-4,83,40,5.82,scattered clouds,2/10/2022 19:36
40,Beira,MZ,-19.84,34.84,77,83,20,8.05,few clouds,2/10/2022 19:36
41,Nanortalik,GL,60.14,-45.24,28.6,90,72,19.77,broken clouds,2/10/2022 19:34
42,Taoudenni,ML,22.68,-3.98,81.77,16,100,10.65,overcast clouds,2/10/2022 19:36
43,Cairns,AU,-16.92,145.77,70,94,0,3.58,clear sky,2/10/2022 19:36
44,Zhuanghe,CN,39.7,122.99,53.01,87,99,9.84,overcast clouds,2/10/2022 19:36
45,Bluff,NZ,-46.6,168.33,53.01,72,94,4,overcast clouds,2/10/2022 19:36
46,Walvis Bay,NA,-22.96,14.51,59,72,0,4.7,clear sky,2/10/2022 19:36
47,Castro,BR,-24.79,-50.01,59,80,95,9.01,overcast clouds,2/10/2022 19:32
48,Katsuura,JP,35.13,140.3,51.8,76,0,8.05,clear sky,2/10/2022 19:36
49,Bredasdorp,ZA,-34.53,20.04,57.2,71,0,5.82,clear sky,2/10/2022 19:36
50,Hay River,CA,60.82,-115.8,24.8,79,0,9.17,clear sky,2/10/2022 19:36
51,High Level,CA,58.52,-117.14,24.8,85,40,6.93,scattered clouds,2/10/2022 19:36
52,Hualmay,PE,-11.1,-77.61,68.65,67,65,9.86,broken clouds,2/10/2022 19:33
53,Vaini,TO,-21.2,-175.2,73.4,88,90,11.41,light intensity shower rain,2/10/2022 19:36
54,Jarocin,PL,51.97,17.5,51.01,95,4,8.57,clear sky,2/10/2022 19:36
55,Ahuimanu,US,21.44,-157.84,81,61,20,2.44,few clouds,2/10/2022 19:36
56,Albany,US,42.6,-73.97,44.01,66,0,6.24,clear sky,2/10/2022 19:36
57,Bratsk,RU,56.13,101.61,10.4,85,83,8.95,broken clouds,2/10/2022 19:36
58,Karratha,AU,-20.74,116.85,69.08,83,0,11.61,clear sky,2/10/2022 19:35
59,Portland,US,45.52,-122.68,55,70,1,6.93,clear sky,2/10/2022 19:36
60,Tasiilaq,GL,65.61,-37.64,32,97,75,4.7,broken clouds,2/10/2022 19:36
61,Torbay,CA,47.67,-52.73,37,74,90,12.75,light shower snow,2/10/2022 19:34
62,Kapaa,US,22.08,-159.32,81,78,1,5.5,clear sky,2/10/2022 19:36
63,Katherine,AU,-14.47,132.27,82.4,54,0,6.93,clear sky,2/10/2022 19:34
64,Rehburg-Loccum,DE,52.47,9.2,55.99,87,40,6.93,scattered clouds,2/10/2022 19:36
65,Avarua,CK,-21.21,-159.78,73.4,83,100,13.87,overcast clouds,2/10/2022 19:36
66,Atuona,PF,-9.8,-139.03,78.55,74,23,17.54,few clouds,2/10/2022 19:36
67,Pokhara,NP,28.23,83.98,69.51,30,48,6.46,scattered clouds,2/10/2022 19:36
68,Marrakesh,MA,31.63,-8.01,78.8,24,0,4.7,clear sky,2/10/2022 19:36
69,Dahuk,IQ,36.87,42.99,61.59,28,8,6.26,clear sky,2/10/2022 19:36
70,Hobart,AU,-42.88,147.33,53.6,66,75,5.82,broken clouds,2/10/2022 19:34
71,Upernavik,GL,72.79,-56.15,15.76,96,88,13.82,overcast clouds,2/10/2022 19:36
72,Awjilah,LY,29.11,21.29,68.81,56,94,8.43,overcast clouds,2/10/2022 19:36
73,Garissa,KE,-0.45,39.64,79.2,69,0,17.9,clear sky,2/10/2022 19:36
74,Clonakilty,IE,51.62,-8.87,46.99,81,75,16.11,broken clouds,2/10/2022 19:36
75,Salamiyah,SY,35.01,37.05,67.35,45,2,6.87,clear sky,2/10/2022 19:36
76,Portobelo,PA,9.55,-79.65,84.99,99,100,1.99,overcast clouds,2/10/2022 19:36
77,Punta Arenas,CL,-53.15,-70.92,59,54,75,19.46,broken clouds,2/10/2022 19:32
78,Soyo,AO,-6.13,12.37,78.15,84,92,11.95,overcast clouds,2/10/2022 19:36
79,Barrow,US,71.29,-156.79,24.8,62,90,12.75,light snow,2/10/2022 19:36
80,Miles City,US,46.41,-105.84,46.4,31,1,27.51,clear sky,2/10/2022 19:34
81,Buala,SB,-8.14,159.59,81.37,73,56,2.93,broken clouds,2/10/2022 19:36
82,Mataura,NZ,-46.19,168.86,53.01,72,51,4,broken clouds,2/10/2022 19:36
83,Airai,TL,-8.93,125.41,59.7,69,16,2.57,few clouds,2/10/2022 19:36
84,Geraldton,AU,-28.77,114.6,68,72,75,14.99,broken clouds,2/10/2022 19:36
85,Caravelas,BR,-17.71,-39.25,73.24,95,100,6.31,moderate rain,2/10/2022 19:36
86,Xuanhua,CN,40.61,115.04,40.15,56,0,8.3,clear sky,2/10/2022 19:36
87,Tezu,IN,27.92,96.17,73.45,63,100,2.19,overcast clouds,2/10/2022 19:35
88,New Norfolk,AU,-42.78,147.06,51.01,70,34,2.42,scattered clouds,2/10/2022 19:36
89,Saint-Philippe,RE,-21.36,55.77,66.2,63,0,6.93,clear sky,2/10/2022 19:34
90,Cherskiy,RU,68.75,161.3,8.47,88,89,3.36,overcast clouds,2/10/2022 19:34
91,Sabha,LY,27.04,14.43,63.63,42,0,9.22,clear sky,2/10/2022 19:36
92,Karakol,KG,42.49,78.39,32.18,67,0,4.03,clear sky,2/10/2022 19:36
93,Jamestown,US,42.1,-79.24,43,64,75,8.05,broken clouds,2/10/2022 19:34
94,Bahia Blanca,AR,-38.72,-62.27,80.28,17,0,3.24,clear sky,2/10/2022 19:36
95,Nishihara,JP,26.18,127.76,75.2,60,40,11.41,shower rain,2/10/2022 19:36
96,Kulhudhuffushi,MV,6.62,73.07,82.72,70,51,7.05,broken clouds,2/10/2022 19:36
97,Smidovich,RU,48.6,133.82,43.03,88,99,13.11,overcast clouds,2/10/2022 19:36
98,Kodiak,US,57.79,-152.41,33.8,55,1,3.36,clear sky,2/10/2022 19:36
99,Gubkin,RU,51.28,37.55,51.66,92,100,16.44,overcast clouds,2/10/2022 19:36
100,Sangar,RU,63.92,127.47,-15.3,89,45,2.8,scattered clouds,2/10/2022 19:36
101,Moron,AR,-34.65,-58.62,75,43,0,12.75,clear sky,2/10/2022 19:36
102,Hamilton,US,39.18,-84.53,57,50,1,10.29,clear sky,2/10/2022 19:36
103,Georgetown,MY,5.41,100.34,75.2,94,20,8.28,few clouds,2/10/2022 19:32
104,Patrocinio,BR,-18.94,-46.99,78.8,57,90,10.29,overcast clouds,2/10/2022 19:36
105,Meulaboh,ID,4.14,96.13,77.81,84,99,4.61,overcast clouds,2/10/2022 19:34
106,Cooma,AU,-36.23,149.13,46.4,100,90,14.99,overcast clouds,2/10/2022 19:35
107,Sorland,NO,67.67,12.69,46.33,73,100,17.22,overcast clouds,2/10/2022 19:36
108,Gurupi,BR,-11.73,-49.07,82.81,65,100,4.61,heavy intensity rain,2/10/2022 19:36
109,Coachella,US,33.68,-116.17,88,13,1,3.36,clear sky,2/10/2022 19:36
110,Ust-Tsilma,RU,65.44,52.15,33.19,93,95,7.94,overcast clouds,2/10/2022 19:36
111,Plettenberg Bay,ZA,-34.05,23.37,58.51,83,7,5.97,clear sky,2/10/2022 19:36
112,Dikson,RU,73.51,80.55,17.08,97,100,12.1,light snow,2/10/2022 19:36
113,Staunton,US,38.15,-79.07,54,55,90,5.82,overcast clouds,2/10/2022 19:36
114,Esperance,AU,-33.87,121.9,64.4,42,100,6.93,overcast clouds,2/10/2022 19:36
115,Adeje,ES,28.12,-16.73,86,15,0,25.28,clear sky,2/10/2022 19:36
116,Kosh-Agach,RU,50,88.67,17.56,85,0,2.42,clear sky,2/10/2022 19:36
117,Port Hedland,AU,-20.32,118.57,73.4,88,0,6.93,clear sky,2/10/2022 19:36
118,Puerto Suarez,BO,-18.95,-57.8,86,48,20,11.41,few clouds,2/10/2022 19:36
119,Batagay-Alyta,RU,67.8,130.41,0.5,92,100,0.65,overcast clouds,2/10/2022 19:35
120,Sao Felix Do Xingu,BR,-6.64,-51.99,90.82,49,100,0.96,overcast clouds,2/10/2022 19:36
121,Abonnema,NG,4.71,6.79,77,88,20,2.24,few clouds,2/10/2022 19:36
122,Ostrovnoy,RU,68.05,39.51,27.3,95,41,15.23,scattered clouds,2/10/2022 19:34
123,Yulara,AU,-25.24,130.99,66.2,26,0,5.82,clear sky,2/10/2022 19:36
124,Gondanglegi,ID,-7.75,112.01,73.15,91,94,2.89,overcast clouds,2/10/2022 19:36
125,Khatanga,RU,71.97,102.5,-6.93,87,9,8.19,clear sky,2/10/2022 19:36
126,Chuy,UY,-33.7,-53.46,62.82,64,11,8.7,few clouds,2/10/2022 19:36
127,Mahebourg,MU,-20.41,57.7,68,72,20,3.36,few clouds,2/10/2022 19:33
128,Hervey Bay,AU,-25.3,152.85,75.99,82,1,5.01,clear sky,2/10/2022 19:36
129,Shenjiamen,CN,29.96,122.3,65.26,78,24,4.12,few clouds,2/10/2022 19:36
130,Lensk,RU,60.73,114.93,-3.05,90,6,2.24,clear sky,2/10/2022 19:36
131,Lampa,CL,-33.28,-70.9,88,28,0,19.46,clear sky,2/10/2022 19:36
132,Yarada,IN,17.65,83.27,77,88,66,2.24,mist,2/10/2022 19:36
133,Dakar,SN,14.69,-17.44,78.8,88,0,16.11,clear sky,2/10/2022 19:32
134,Svetlaya,RU,46.54,138.33,40.64,69,49,3.69,scattered clouds,2/10/2022 19:36
135,Kavaratti,IN,10.57,72.64,82.36,66,5,2.01,clear sky,2/10/2022 19:36
136,Winona,US,43.97,-91.77,59,51,75,10.29,broken clouds,2/10/2022 19:34
137,Lebu,CL,-37.62,-73.65,59.47,67,0,9.04,clear sky,2/10/2022 19:36
138,Sao Raimundo Das Mangabeiras,BR,-7.02,-45.48,83.52,64,97,4.43,moderate rain,2/10/2022 19:36
139,Laguna,US,38.42,-121.42,73.99,30,1,4.7,clear sky,2/10/2022 19:34
140,Kaitangata,NZ,-46.28,169.85,55,56,55,13,broken clouds,2/10/2022 19:34
141,Bethel,US,41.37,-73.41,45,39,1,5.82,clear sky,2/10/2022 19:36
142,Halifax,CA,44.65,-63.57,45,38,0,5.82,clear sky,2/10/2022 19:35
143,Labuhan,ID,-6.88,112.21,75.22,92,100,3.6,overcast clouds,2/10/2022 19:35
144,San Patricio,US,28.02,-97.52,78.8,44,40,4.7,scattered clouds,2/10/2022 19:36
145,Sao Paulo De Olivenca,BR,-3.38,-68.87,76.03,91,100,3.49,heavy intensity rain,2/10/2022 19:36
146,Ilulissat,GL,69.22,-51.1,19.4,67,75,8.05,broken clouds,2/10/2022 19:36
147,Carnarvon,AU,-24.87,113.63,68,88,40,8.05,scattered clouds,2/10/2022 19:36
148,Tefe,BR,-3.35,-64.71,73.4,94,90,5.82,moderate rain,2/10/2022 19:37
149,Fortuna,US,40.6,-124.16,57.2,71,1,4.7,clear sky,2/10/2022 19:34
150,Saskylakh,RU,71.92,114.08,-5.48,83,1,6.46,clear sky,2/10/2022 19:34
151,Sibolga,ID,1.74,98.78,77.59,80,100,2.59,light rain,2/10/2022 19:37
152,Catamarca,AR,-28.47,-65.79,84.99,24,6,5.99,clear sky,2/10/2022 19:37
153,Mollendo,PE,-17.02,-72.01,66.51,70,100,7.16,overcast clouds,2/10/2022 19:37
154,Ghanzi,BW,-21.57,21.78,81.66,21,49,6.35,scattered clouds,2/10/2022 19:37
155,Jiaocheng,CN,24.68,116.14,64.35,75,2,2.35,light rain,2/10/2022 19:37
156,Vila Franca Do Campo,PT,37.72,-25.43,69.8,94,75,20.8,broken clouds,2/10/2022 19:37
157,Husavik,IS,66.04,-17.34,37.4,75,0,5.82,clear sky,2/10/2022 19:35
158,The Valley,AI,18.22,-63.06,86,70,20,17.22,haze,2/10/2022 19:36
159,Embonas,GR,36.23,27.86,68,60,0,13.87,clear sky,2/10/2022 19:37
160,Mega,ET,4.05,38.3,60.31,89,74,7.52,broken clouds,2/10/2022 19:37
161,Kavarskas,LT,55.43,24.92,42.62,94,0,5.19,clear sky,2/10/2022 19:37
162,Boyolangu,ID,-8.12,111.89,73.26,88,67,7.52,broken clouds,2/10/2022 19:37
163,Hilo,US,19.73,-155.09,84.2,54,40,3.36,scattered clouds,2/10/2022 19:35
164,Sept-Iles,CA,50.2,-66.38,35.01,43,0,9.17,clear sky,2/10/2022 19:37
165,Lalas,GR,37.72,21.72,55.4,82,0,2.91,clear sky,2/10/2022 19:37
166,Sitka,US,57.05,-135.33,51.8,87,90,20.8,light rain,2/10/2022 19:37
167,Tarakan,ID,3.3,117.63,79.23,79,100,9.4,overcast clouds,2/10/2022 19:37
168,Komsomolskiy,UZ,40.43,71.72,41,41,0,9.17,clear sky,2/10/2022 19:33
169,Khanino,RU,54.21,36.62,44.6,81,100,11.18,overcast clouds,2/10/2022 19:37
170,Phan Thiet,VN,10.93,108.1,75.97,88,100,3.83,overcast clouds,2/10/2022 19:37
171,Muslyumovo,RU,55.3,53.19,39.52,90,100,5.44,overcast clouds,2/10/2022 19:37
172,Sobolevo,RU,54.43,31.9,45.55,83,100,11.23,overcast clouds,2/10/2022 19:37
173,Nuevo Progreso,MX,23.17,-97.95,84,38,0,5.99,clear sky,2/10/2022 19:37
174,Vicuna,CL,-30.03,-70.71,82.99,14,0,3,clear sky,2/10/2022 19:37
175,Mount Isa,AU,-20.73,139.5,69.8,26,0,10.29,clear sky,2/10/2022 19:37
176,Ponta Do Sol,PT,32.67,-17.1,72,68,20,9.17,few clouds,2/10/2022 19:37
177,Vanimo,PG,-2.67,141.3,77.88,82,34,7.16,scattered clouds,2/10/2022 19:37
178,Chokurdakh,RU,70.63,147.92,-7.15,91,95,8.32,overcast clouds,2/10/2022 19:37
179,Pochutla,MX,15.74,-96.47,89.01,62,40,9.17,scattered clouds,2/10/2022 19:35
180,Kirkkonummi,FI,60.12,24.44,44.01,92,0,9.33,clear sky,2/10/2022 19:37
181,Ixtapa,MX,20.7,-105.2,87.01,66,5,8.05,clear sky,2/10/2022 19:37
182,Severnyy,RU,50.68,36.55,46.4,100,90,8.95,mist,2/10/2022 19:37
183,Naron,ES,43.52,-8.15,68,73,99,20,light rain,2/10/2022 19:37
184,Pandan,PH,14.05,124.17,81.03,87,100,63.84,very heavy rain,2/10/2022 19:37
185,Ust-Nera,RU,64.57,143.2,-3.87,82,100,3.04,overcast clouds,2/10/2022 19:37
186,Inirida,CO,3.87,-67.92,82.99,79,100,2.19,light rain,2/10/2022 19:37
187,Domanivka,UA,47.63,30.99,46.9,81,97,10.36,overcast clouds,2/10/2022 19:37
188,Olafsvik,IS,64.89,-23.71,43.34,76,13,5.7,few clouds,2/10/2022 19:37
189,Chandauli,IN,25.27,83.27,69.8,73,20,2.24,mist,2/10/2022 19:37
190,Auki,SB,-8.77,160.7,79.83,82,72,4.29,broken clouds,2/10/2022 19:37
191,Saint George,US,37.1,-113.58,62.6,20,1,0.76,clear sky,2/10/2022 19:37
192,Aksarka,RU,66.56,67.8,29.62,96,52,16.49,broken clouds,2/10/2022 19:37
193,Narsaq,GL,60.92,-46.05,26.6,73,40,1.07,scattered clouds,2/10/2022 19:37
194,Zhanaozen,KZ,43.3,52.8,55.06,32,95,16.84,overcast clouds,2/10/2022 19:37
195,Vila Velha,BR,-20.33,-40.29,71.6,94,90,8.05,light rain,2/10/2022 19:35
196,Lubumbashi,CD,-11.66,27.48,70.07,40,35,4.92,scattered clouds,2/10/2022 19:37
197,Haizhou,CN,34.58,119.13,59.63,60,100,2.64,light rain,2/10/2022 19:37
198,Rorvik,NO,64.86,11.24,47.48,68,100,25.48,light rain,2/10/2022 19:37
199,Kieta,PG,-6.22,155.63,80.01,78,53,1.41,light rain,2/10/2022 19:37
200,Luderitz,NA,-26.65,15.16,66.51,43,42,21.92,scattered clouds,2/10/2022 19:37
201,Kamaishi,JP,39.27,141.88,50.76,72,62,9.15,broken clouds,2/10/2022 19:37
202,Kon Tum,VN,14.35,108,67.71,91,78,2.35,broken clouds,2/10/2022 19:37
203,Cidreira,BR,-30.18,-50.21,66.29,65,100,10.09,overcast clouds,2/10/2022 19:35
204,Takanosu,JP,40.22,140.37,42.01,81,99,2.39,overcast clouds,2/10/2022 19:37
205,Pangoa,PE,-12.12,-73,68.27,92,100,1.72,overcast clouds,2/10/2022 19:37
206,Ribeira Grande,PT,38.52,-28.7,69.8,94,75,16.11,broken clouds,2/10/2022 19:37
207,Beidao,CN,34.57,105.89,44.65,56,75,1.07,broken clouds,2/10/2022 19:37
208,Bathsheba,BB,13.22,-59.52,80.6,83,75,17.22,broken clouds,2/10/2022 19:37
209,Kloulklubed,PW,7.04,134.26,84.43,77,100,16.33,moderate rain,2/10/2022 19:37
210,Lata,PT,40.16,-8.33,64.99,86,17,0.65,few clouds,2/10/2022 19:37
211,Paris,FR,48.85,2.35,64,82,90,11.41,overcast clouds,2/10/2022 19:34
212,Beipiao,CN,41.79,120.78,39.88,54,0,8.14,clear sky,2/10/2022 19:37
213,Kaisiadorys,LT,54.87,24.45,46.4,93,90,2.24,overcast clouds,2/10/2022 19:37
214,Waipawa,NZ,-41.41,175.52,60.8,72,12,12.75,few clouds,2/10/2022 19:37
215,Kangaatsiaq,GL,68.31,-53.46,23.86,97,99,11.1,overcast clouds,2/10/2022 19:37
216,Touros,BR,-5.2,-35.46,84.2,70,40,14.99,scattered clouds,2/10/2022 19:37
217,Victoria,HK,22.29,114.16,73,78,99,1.01,overcast clouds,2/10/2022 19:36
218,Pontes E Lacerda,BR,-15.23,-59.34,87.94,39,74,6.76,broken clouds,2/10/2022 19:34
219,Tanout,NE,14.97,8.89,80.8,16,0,10.71,clear sky,2/10/2022 19:37
220,San Carlos De Bariloche,AR,-41.15,-71.31,80.6,10,0,4.7,clear sky,2/10/2022 19:37
221,Brae,GB,60.4,-1.35,51.8,76,100,38.03,overcast clouds,2/10/2022 19:37
222,Isfana,KG,39.84,69.53,37.4,69,97,3,overcast clouds,2/10/2022 19:37
223,Seoul,KR,37.57,126.98,57.2,71,90,8.21,overcast clouds,2/10/2022 19:37
224,Kungurtug,RU,50.6,97.52,18.86,93,95,3.15,overcast clouds,2/10/2022 19:37
225,Khasan,RU,42.43,130.64,49.84,61,74,3.71,broken clouds,2/10/2022 19:37
226,Colares,PT,38.8,-9.45,64.99,82,40,8.05,scattered clouds,2/10/2022 19:37
227,Ugoofaaru,MV,5.67,73,82.78,66,41,4.38,scattered clouds,2/10/2022 19:37
228,Beringovskiy,RU,63.05,179.32,18.5,95,99,11.9,overcast clouds,2/10/2022 19:37
229,Kiunga,PG,-6.12,141.29,72.39,98,89,1.63,overcast clouds,2/10/2022 19:37
230,Okitipupa,NG,6.5,4.78,76.15,95,92,2.98,light rain,2/10/2022 19:37
231,Bramming,DK,55.47,8.7,55.4,93,62,9.17,broken clouds,2/10/2022 19:37
232,Reconquista,AR,-29.15,-59.65,76.46,43,0,10.13,clear sky,2/10/2022 19:37
233,Saint-Pierre,RE,-21.34,55.48,66.2,63,0,6.93,clear sky,2/10/2022 19:37
234,Puerto Ayora,EC,-0.74,-90.35,77,73,75,16.11,broken clouds,2/10/2022 19:33
235,Waconia,US,44.85,-93.79,55,65,100,7,overcast clouds,2/10/2022 19:37
236,Mahoba,IN,25.28,79.87,73.58,21,64,3.85,broken clouds,2/10/2022 19:37
237,Mongo,TD,12.18,18.69,88.7,23,48,5.26,scattered clouds,2/10/2022 19:37
238,Qandala,SO,11.47,49.87,79.74,67,0,7.09,clear sky,2/10/2022 19:37
239,Nushki,PK,29.55,66.02,45.82,52,0,0.76,clear sky,2/10/2022 19:37
240,Codrington,AU,-38.27,141.97,45.86,92,37,3.6,scattered clouds,2/10/2022 19:37
241,Kidal,ML,18.44,1.41,82,16,84,10.85,broken clouds,2/10/2022 19:37
242,Luwuk,ID,-0.95,122.79,77.59,74,100,3.18,light rain,2/10/2022 19:37
243,Vestmannaeyjar,IS,63.44,-20.27,42.8,75,20,10.29,few clouds,2/10/2022 19:37
244,Klaksvik,FO,62.23,-6.59,48.2,100,97,13.87,light rain,2/10/2022 19:37
245,Inuvik,CA,68.35,-133.72,1.4,77,79,1.12,broken clouds,2/10/2022 19:37
246,Tenosique,MX,17.48,-91.43,75.2,94,90,5.93,overcast clouds,2/10/2022 19:37
247,Paralimni,CY,35.04,33.98,71.6,73,20,8.05,few clouds,2/10/2022 19:37
248,Tuatapere,NZ,-46.13,167.68,53.01,72,48,4,scattered clouds,2/10/2022 19:37
249,Jasper,US,37.2,-94.35,64.99,31,1,12.75,clear sky,2/10/2022 19:34
250,Teguise,ES,29.06,-13.56,75.2,73,0,9.17,clear sky,2/10/2022 19:37
251,Baykit,RU,61.67,96.37,0.86,89,72,2.62,broken clouds,2/10/2022 19:37
252,Clyde River,CA,70.47,-68.59,14,92,75,14.99,light snow,2/10/2022 19:37
253,Nome,US,64.5,-165.41,8.6,78,1,7.38,clear sky,2/10/2022 19:36
254,Cape Coast,GH,5.11,-1.25,79.23,87,77,7.9,broken clouds,2/10/2022 19:37
255,Ayorou,NE,14.73,0.92,89.15,12,0,9.31,clear sky,2/10/2022 19:37
256,Manado,ID,1.49,124.85,77,94,20,2.24,few clouds,2/10/2022 19:32
257,Kudahuvadhoo,MV,2.67,72.89,82.85,73,41,6.53,scattered clouds,2/10/2022 19:37
258,Nuuk,GL,64.18,-51.72,20.41,91,99,4.03,overcast clouds,2/10/2022 19:37
259,Kamen-Rybolov,RU,44.75,132.04,45.61,77,32,12.86,scattered clouds,2/10/2022 19:37
260,Bereznik,RU,62.86,42.71,30.42,98,0,3.09,clear sky,2/10/2022 19:35
261,Grindavik,IS,63.84,-22.43,39.2,93,75,6.93,broken clouds,2/10/2022 19:33
262,Howard Springs,AU,-12.5,131.05,78.8,83,51,3.36,broken clouds,2/10/2022 19:37
263,Bosaso,SO,11.28,49.18,78.28,79,0,1.52,clear sky,2/10/2022 19:34
264,Fairbanks,US,64.84,-147.72,7,84,90,2.24,light snow,2/10/2022 19:32
265,Brodowski,BR,-20.98,-47.66,82.4,45,75,11.41,broken clouds,2/10/2022 19:35
266,Shawville,CA,45.6,-76.48,43,43,3,9.15,clear sky,2/10/2022 19:37
267,Haines Junction,CA,60.75,-137.51,14,72,100,4.7,snow,2/10/2022 19:37
268,Dauphin,CA,51.15,-100.05,26.6,73,90,24.16,overcast clouds,2/10/2022 19:37
269,Ulety,RU,51.36,112.48,22.24,93,78,7.74,broken clouds,2/10/2022 19:37
270,Sungaipenuh,ID,-2.08,101.38,64.06,93,100,1.25,light rain,2/10/2022 19:37
271,Kuandian,CN,40.73,124.78,42.12,93,10,2.82,clear sky,2/10/2022 19:37
272,Portales,US,34.19,-103.33,73,32,1,12.75,clear sky,2/10/2022 19:37
273,Excelsior Springs,US,39.34,-94.23,66.99,45,1,16.11,clear sky,2/10/2022 19:37
274,Pampas,PE,-12.4,-74.9,57.02,64,98,8.68,light rain,2/10/2022 19:37
275,Cangucu,BR,-31.39,-52.68,69.8,52,40,13.87,scattered clouds,2/10/2022 19:37
276,Jeremie,HT,18.65,-74.12,84.7,70,100,7.31,light rain,2/10/2022 19:37
277,Verkhoyansk,RU,67.54,133.38,-7.89,88,94,4.68,overcast clouds,2/10/2022 19:37
278,Valle Hermoso,MX,25.67,-97.83,81,50,20,5.82,few clouds,2/10/2022 19:37
279,Bambous Virieux,MU,-20.34,57.76,68,72,20,3.36,few clouds,2/10/2022 19:37
280,Dhidhdhoo,MV,6.88,73.1,82.94,69,74,6.13,broken clouds,2/10/2022 19:37
281,Makakilo City,US,21.35,-158.09,80.6,74,20,4,few clouds,2/10/2022 19:37
282,Ostersund,SE,63.18,14.64,36,93,97,11.41,overcast clouds,2/10/2022 19:37
283,Sola,VU,-13.88,167.55,82.4,83,75,9.17,broken clouds,2/10/2022 19:35
284,Barry,GB,51.41,-3.27,53.6,66,40,12.75,scattered clouds,2/10/2022 19:34
285,Petropavlovsk-Kamchatskiy,RU,53.05,158.65,39.2,64,40,11.18,scattered clouds,2/10/2022 19:37
286,Shimoda,JP,34.67,138.95,57.31,61,54,7.74,broken clouds,2/10/2022 19:37
287,Gazalkent,UZ,41.56,69.77,44.6,42,81,6.93,smoke,2/10/2022 19:37
288,Thompson,CA,55.74,-97.86,19.4,62,75,18.34,broken clouds,2/10/2022 19:37
289,Dunedin,NZ,-45.87,170.5,53.01,72,5,5.01,clear sky,2/10/2022 19:37
290,Iskateley,RU,67.68,53.15,33.46,93,95,15.17,overcast clouds,2/10/2022 19:37
291,Arman,RU,59.7,150.17,33.19,95,100,4.74,overcast clouds,2/10/2022 19:37
292,Guadalupe Y Calvo,MX,26.1,-106.97,73.27,29,4,6.11,clear sky,2/10/2022 19:37
293,Safranbolu,TR,41.25,32.69,48.52,84,51,0.25,broken clouds,2/10/2022 19:32
294,Bereda,ES,43.27,-7.54,63,87,100,15.99,overcast clouds,2/10/2022 19:37
295,Macherla,IN,16.48,79.43,71.6,71,0,4.18,clear sky,2/10/2022 19:37
296,Karak,JO,31.17,35.75,64.4,88,57,5.82,haze,2/10/2022 19:37
297,Sao Filipe,CV,14.9,-24.5,80.28,65,69,16.37,broken clouds,2/10/2022 19:37
298,Hun,LY,29.13,15.95,64.58,61,42,9.04,scattered clouds,2/10/2022 19:37
299,Narasannapeta,IN,18.42,84.05,75.36,72,76,5.95,broken clouds,2/10/2022 19:37
300,Canakkale,TR,40.08,26.83,51.8,76,0,4.7,clear sky,2/10/2022 19:37
301,Vostok,RU,46.49,135.88,34.72,95,100,5.44,overcast clouds,2/10/2022 19:37
302,Forbes,AU,-33.38,148.02,52,95,25,3.38,scattered clouds,2/10/2022 19:37
303,Souillac,MU,-20.52,57.52,68,72,20,3.36,few clouds,2/10/2022 19:37
304,Punta Cardon,VE,11.66,-70.22,85.21,68,100,5.26,overcast clouds,2/10/2022 19:37
305,Guerrero Negro,MX,27.98,-114.06,80.08,33,100,8.05,overcast clouds,2/10/2022 19:37
306,Arraial Do Cabo,BR,-22.97,-42.03,71.6,88,75,8.05,broken clouds,2/10/2022 19:34
307,Shelburne,CA,44.08,-80.2,43,49,17,15.52,few clouds,2/10/2022 19:37
308,Lagoa,PT,39.05,-27.98,68.76,91,31,23.67,scattered clouds,2/10/2022 19:37
309,Saint-Augustin,CA,51.23,-58.65,31.75,77,0,10.25,clear sky,2/10/2022 19:37
310,Stolin,BY,51.89,26.85,46.42,88,73,9.64,broken clouds,2/10/2022 19:37
311,Gotsu,JP,35,132.22,53.58,75,4,5.53,clear sky,2/10/2022 19:37
312,Ndioum,SN,16.51,-14.65,93.2,24,0,2.24,clear sky,2/10/2022 19:37
313,Bonavista,CA,48.65,-53.11,36,59,100,6.93,overcast clouds,2/10/2022 19:35
314,Makaleng,BW,-20.9,27.28,80.6,30,0,12.75,clear sky,2/10/2022 19:37
315,Sur,OM,22.57,59.53,70.03,57,0,1.63,clear sky,2/10/2022 19:37
316,Gerash,IR,27.67,54.14,68,45,0,4.7,clear sky,2/10/2022 19:37
317,Emerald,AU,-23.53,148.17,60.8,63,0,5.82,clear sky,2/10/2022 19:37
318,Fethiye,TR,36.62,29.12,62.6,72,0,5.82,clear sky,2/10/2022 19:37
319,Krasnoselkup,RU,65.7,82.47,30.76,99,100,17.6,overcast clouds,2/10/2022 19:37
320,Rabat,MA,33.99,-6.84,64.4,100,40,3.36,scattered clouds,2/10/2022 19:33
321,Thai Binh,VN,20.45,106.33,71.6,94,1,3.36,mist,2/10/2022 19:37
322,Christchurch,NZ,-43.53,172.63,59,93,69,5.82,broken clouds,2/10/2022 19:35
323,Iqaluit,CA,63.75,-68.51,19.4,79,75,11.41,light snow,2/10/2022 19:34
324,Zabol,AF,32.25,67.25,40.19,54,0,6.04,clear sky,2/10/2022 19:37
325,Homer,US,59.64,-151.55,26.01,45,1,8.05,clear sky,2/10/2022 19:35
326,La Ronge,CA,55.1,-105.28,21.2,73,66,6.93,broken clouds,2/10/2022 19:37
327,Taltal,CL,-25.4,-70.48,64.9,53,76,7.85,broken clouds,2/10/2022 19:37
328,Zavyalovo,RU,54.51,82.45,33.8,100,90,6.71,light intensity drizzle,2/10/2022 19:37
329,Saldanha,ZA,-33.01,17.94,60.8,67,0,9.17,clear sky,2/10/2022 19:37
330,Pembroke,CA,45.82,-77.12,42.01,32,1,5.82,clear sky,2/10/2022 19:36
331,Bagan,RU,54.1,77.66,33.67,93,63,11.16,broken clouds,2/10/2022 19:37
332,Vihari,PK,30.03,72.35,64.9,25,0,1.88,clear sky,2/10/2022 19:37
333,Wewak,PG,-3.55,143.63,79.47,83,100,7.45,overcast clouds,2/10/2022 19:37
334,Bontang,ID,0.13,117.5,76.32,87,100,7.2,overcast clouds,2/10/2022 19:37
335,Koratla,IN,18.82,78.72,67.84,63,0,3.31,clear sky,2/10/2022 19:37
336,Mitsamiouli,KM,-11.38,43.28,77.52,80,75,7.4,broken clouds,2/10/2022 19:37
337,Aklavik,CA,68.22,-135.01,-4,83,40,2.24,scattered clouds,2/10/2022 19:37
338,Sinazongwe,ZM,-17.26,27.46,81.59,35,0,5.79,clear sky,2/10/2022 19:34
339,Norman Wells,CA,65.28,-126.83,1.4,84,20,3.36,few clouds,2/10/2022 19:37
340,Samana,DO,19.21,-69.34,82.4,88,75,11.41,broken clouds,2/10/2022 19:37
341,Am Timan,TD,11.03,20.28,81.86,37,1,2.55,clear sky,2/10/2022 19:37
342,Birin,NP,26.89,88.07,58.33,66,8,3.65,clear sky,2/10/2022 19:37
343,Ruteng,ID,-8.61,120.47,63.93,84,95,0.31,moderate rain,2/10/2022 19:37
344,Bechem,GH,7.09,-2.02,76.48,74,2,1.72,clear sky,2/10/2022 19:37
345,Burlatskoye,RU,45.06,43.63,56.91,87,100,3.89,overcast clouds,2/10/2022 19:37
346,Okhotsk,RU,59.38,143.3,14.99,87,0,13.6,clear sky,2/10/2022 19:35
347,Sao Joao Da Barra,BR,-21.64,-41.05,71.6,94,90,18.34,overcast clouds,2/10/2022 19:37
348,Tautira,PF,-17.73,-149.15,84.2,62,20,6.93,few clouds,2/10/2022 19:35
349,Zernograd,RU,46.85,40.31,57.18,94,100,7.16,overcast clouds,2/10/2022 19:37
350,Haapiti,PF,-17.57,-149.87,84.2,62,20,6.93,few clouds,2/10/2022 19:37
351,Providencia,MX,28.72,-111.58,89.01,42,100,1.01,overcast clouds,2/10/2022 19:37
352,Santa Isabel Do Rio Negro,BR,-0.41,-65.02,89.56,60,93,1.72,light rain,2/10/2022 19:37
353,Te Anau,NZ,-45.42,167.72,52.27,64,39,8.34,scattered clouds,2/10/2022 19:37
354,Kholodnyy,RU,62.72,147.95,8.11,93,100,1.43,light snow,2/10/2022 19:37
355,Pangkalanbuun,ID,-2.68,111.62,73.44,98,78,1.48,broken clouds,2/10/2022 19:37
356,Juneau,US,58.3,-134.42,44.6,87,90,23.04,mist,2/10/2022 19:34
357,Pevek,RU,69.7,170.31,13.1,96,71,11.23,broken clouds,2/10/2022 19:37
358,Irtyshskiy,RU,58.33,68.13,35.2,87,100,11.41,overcast clouds,2/10/2022 19:37
359,Uvinza,TZ,-5.1,30.39,68.63,74,4,3.22,clear sky,2/10/2022 19:37
360,Helena,US,46.59,-112.04,51.8,34,1,10.29,clear sky,2/10/2022 19:34
361,Murighiol,RO,45.03,29.17,46.4,87,99,13.87,overcast clouds,2/10/2022 19:37
362,Sotouboua,TG,8.57,0.98,84.2,58,0,2.24,clear sky,2/10/2022 19:37
363,Itarema,BR,-2.92,-39.92,81.82,73,89,17.34,overcast clouds,2/10/2022 19:37
364,Berlevag,NO,70.86,29.09,33.84,92,100,13.4,light rain,2/10/2022 19:37
365,Lasa,IT,46.62,10.7,44.6,41,0,3.36,clear sky,2/10/2022 19:37
366,Abu Zabad,SD,12.35,29.25,83.98,20,5,6.02,clear sky,2/10/2022 19:37
367,Vila Real,PT,41.3,-7.74,63,8,45,2.86,scattered clouds,2/10/2022 19:37
368,Maniitsoq,GL,65.42,-52.9,21.25,86,100,6.15,overcast clouds,2/10/2022 19:37
369,Charlottesville,US,38.03,-78.48,55,50,75,5.82,broken clouds,2/10/2022 19:37
370,Mitzic,GA,0.78,11.55,69.55,98,100,2.51,light rain,2/10/2022 19:34
371,Rio Gallegos,AR,-51.62,-69.22,62.6,36,0,9.17,clear sky,2/10/2022 19:33
372,Ovada,IT,44.64,8.65,57,85,100,4.29,overcast clouds,2/10/2022 19:37
373,Drosaton,GR,41.16,22.8,63,65,33,7.45,scattered clouds,2/10/2022 19:37
374,Pipraich,IN,26.83,83.53,72.63,43,38,6.58,scattered clouds,2/10/2022 19:37
375,Mulki,IN,13.1,74.8,78.8,88,40,5.01,mist,2/10/2022 19:37
376,Abu Samrah,SY,35.3,37.18,66.49,55,0,8.01,clear sky,2/10/2022 19:37
377,Grand-Santi,GF,4.25,-54.38,89.67,52,53,7.2,broken clouds,2/10/2022 19:37
378,Kilindoni,TZ,-7.91,39.67,79.23,79,20,12.15,light rain,2/10/2022 19:37
